[
    {
        "city": "New York", 
        "growth_from_2000_to_2013": "4.8%", 
        "latitude": 40.7127837, 
        "longitude": -74.0059413, 
        "population": "8405837", 
        "rank": "1", 
        "state": "New York"
    }, 
    {
        "city": "Los Angeles", 
        "growth_from_2000_to_2013": "4.8%", 
        "latitude": 34.0522342, 
        "longitude": -118.2436849, 
        "population": "3884307", 
        "rank": "2", 
        "state": "California"
    }, 
    {
        "city": "Chicago", 
        "growth_from_2000_to_2013": "-6.1%", 
        "latitude": 41.8781136, 
        "longitude": -87.6297982, 
        "population": "2718782", 
        "rank": "3", 
        "state": "Illinois"
    }, 
    {
        "city": "Houston", 
        "growth_from_2000_to_2013": "11.0%", 
        "latitude": 29.7604267, 
        "longitude": -95.3698028, 
        "population": "2195914", 
        "rank": "4", 
        "state": "Texas"
    }, 
    {
        "city": "Philadelphia", 
        "growth_from_2000_to_2013": "2.6%", 
        "latitude": 39.9525839, 
        "longitude": -75.1652215, 
        "population": "1553165", 
        "rank": "5", 
        "state": "Pennsylvania"
    }, 
    {
        "city": "Phoenix", 
        "growth_from_2000_to_2013": "14.0%", 
        "latitude": 33.4483771, 
        "longitude": -112.0740373, 
        "population": "1513367", 
        "rank": "6", 
        "state": "Arizona"
    },
    {
        "city": "San Diego", 
        "growth_from_2000_to_2013": "10.5%", 
        "latitude": 32.715738, 
        "longitude": -117.1610838, 
        "population": "1355896", 
        "rank": "8", 
        "state": "California"
    }, 
    {
        "city": "Dallas", 
        "growth_from_2000_to_2013": "5.6%", 
        "latitude": 32.7766642, 
        "longitude": -96.79698789999999, 
        "population": "1257676", 
        "rank": "9", 
        "state": "Texas"
    },

    {
        "city": "San Francisco", 
        "growth_from_2000_to_2013": "7.7%", 
        "latitude": 37.7749295, 
        "longitude": -122.4194155, 
        "population": "837442", 
        "rank": "14", 
        "state": "California"
    },
    {
        "city": "Charlotte", 
        "growth_from_2000_to_2013": "39.1%", 
        "latitude": 35.2270869, 
        "longitude": -80.8431267, 
        "population": "792862", 
        "rank": "16", 
        "state": "North Carolina"
    },
    {
        "city": "Detroit", 
        "growth_from_2000_to_2013": "-27.1%", 
        "latitude": 42.331427, 
        "longitude": -83.0457538, 
        "population": "688701", 
        "rank": "18", 
        "state": "Michigan"
    },

    {
        "city": "Seattle", 
        "growth_from_2000_to_2013": "15.6%", 
        "latitude": 47.6062095, 
        "longitude": -122.3320708, 
        "population": "652405", 
        "rank": "21", 
        "state": "Washington"
    }, 
    {
        "city": "Denver", 
        "growth_from_2000_to_2013": "16.7%", 
        "latitude": 39.7392358, 
        "longitude": -104.990251, 
        "population": "649495", 
        "rank": "22", 
        "state": "Colorado"
    }, 
    {
        "city": "Washington", 
        "growth_from_2000_to_2013": "13.0%", 
        "latitude": 38.9071923, 
        "longitude": -77.0368707, 
        "population": "646449", 
        "rank": "23", 
        "state": "District of Columbia"
    }, 
    {
        "city": "Boston", 
        "growth_from_2000_to_2013": "9.4%", 
        "latitude": 42.3600825, 
        "longitude": -71.0588801, 
        "population": "645966", 
        "rank": "24", 
        "state": "Massachusetts"
    }, 

    {
        "city": "Baltimore", 
        "growth_from_2000_to_2013": "-4.0%", 
        "latitude": 39.2903848, 
        "longitude": -76.6121893, 
        "population": "622104", 
        "rank": "26", 
        "state": "Maryland"
    },
    {
        "city": "Portland", 
        "growth_from_2000_to_2013": "15.0%", 
        "latitude": 45.5230622, 
        "longitude": -122.6764816, 
        "population": "609456", 
        "rank": "29", 
        "state": "Oregon"
    }, 
    {
        "city": "Las Vegas", 
        "growth_from_2000_to_2013": "24.5%", 
        "latitude": 36.1699412, 
        "longitude": -115.1398296, 
        "population": "603488", 
        "rank": "30", 
        "state": "Nevada"
    },
    {
        "city": "Atlanta",
        "growth_from_2000_to_2013": "6.2%",
        "latitude": 33.7489954,
        "longitude": -84.3879824,
        "population": "447841",
        "rank": "40",
        "state": "Georgia"
    },
    {
        "city": "Salt Lake City",
        "latitude": 40.7608,
        "longitude": -111.8910

    },
    {
        "city": "Miami",
        "growth_from_2000_to_2013": "14.9%",
        "latitude": 25.7616798,
        "longitude": -80.1917902,
        "population": "417650",
        "rank": "44",
        "state": "Florida"
    },
    {
        "city": "Minneapolis",
        "growth_from_2000_to_2013": "4.5%",
        "latitude": 44.977753,
        "longitude": -93.2650108,
        "population": "400070",
        "rank": "46",
        "state": "Minnesota"
    },
    {
        "city": "Tampa",
        "growth_from_2000_to_2013": "16.0%",
        "latitude": 27.950575,
        "longitude": -82.4571776,
        "population": "352957",
        "rank": "53",
        "state": "Florida"
    },
    {
        "city": "Newark",
        "growth_from_2000_to_2013": "2.1%",
        "latitude": 40.735657,
        "longitude": -74.1723667,
        "population": "278427",
        "rank": "69",
        "state": "New Jersey"
    },
    {
        "city": "Orlando",
        "growth_from_2000_to_2013": "31.2%",
        "latitude": 28.5383355,
        "longitude": -81.3792365,
        "population": "255483",
        "rank": "77",
        "state": "Florida"
    }
]